[
    {
        "name": "Albania",
        "code": "AL",
        "lat": 41.153332,
        "lng": 20.168331,
        "pop": 2877797
    },
    {
        "name": "Algeria",
        "code": "DZ",
        "lat": 28.033886,
        "lng": 1.659626,
        "pop": 43851043
    },
    {
        "name": "American Samoa",
        "code": "AS",
        "lat": -14.270972,
        "lng": -170.132217,
        "pop": 55191
    },
    {
        "name": "AndorrA",
        "code": "AD",
        "lat": 42.546245,
        "lng": 1.601554,
        "pop": 77281
    },
    {
        "name": "Angola",
        "code": "AO",
        "lat": -11.202692,
        "lng": 17.873887,
        "pop": 32866268
    },
    {
        "name": "Anguilla",
        "code": "AI",
        "lat": 18.220554,
        "lng": -63.068615,
        "pop": 15094
    },
    {
        "name": "Antarctica",
        "code": "AQ",
        "lat": -75.250973,
        "lng": -0.071389
    },
    {
        "name": "Antigua and Barbuda",
        "code": "AG",
        "lat": 17.060816,
        "lng": -61.796428,
        "pop": 97929
    },
    {
        "name": "Argentina",
        "code": "AR",
        "lat": -38.416097,
        "lng": -63.616672,
        "pop": 45195777
    },
    {
        "name": "Armenia",
        "code": "AM",
        "lat": 40.069099,
        "lng": 45.038189,
        "pop": 2963234
    },
    {
        "name": "Aruba",
        "code": "AW",
        "lat": 12.52111,
        "lng": -69.968338,
        "pop": 106766
    },
    {
        "name": "Australia",
        "code": "AU",
        "lat": -25.274398,
        "lng": 133.775136,
        "pop": 25687041
    },
    {
        "name": "Austria",
        "code": "AT",
        "lat": 47.516231,
        "lng": 14.550072,
        "pop": 8955102
    },
    {
        "name": "Azerbaijan",
        "code": "AZ",
        "lat": 40.143105,
        "lng": 47.576927,
        "pop": 10154978
    },
    {
        "name": "Bahamas",
        "code": "BS",
        "lat": 25.03428,
        "lng": -77.39628,
        "pop": 393248
    },
    {
        "name": "Bahrain",
        "code": "BH",
        "lat": 25.930414,
        "lng": 50.637772,
        "pop": 1569439
    },
    {
        "name": "Bangladesh",
        "code": "BD",
        "lat": 23.684994,
        "lng": 90.356331,
        "pop": 166303498
    },
    {
        "name": "Barbados",
        "code": "BB",
        "lat": 13.193887,
        "lng": -59.543198,
        "pop": 287375
    },
    {
        "name": "Belarus",
        "code": "BY",
        "lat": 53.709807,
        "lng": 27.953389,
        "pop": 9449323
    },
    {
        "name": "Belgium",
        "code": "BE",
        "lat": 50.850346,
        "lng": 4.351721,
        "pop": 11632334
    },
    {
        "name": "Belize",
        "code": "BZ",
        "lat": 17.189877,
        "lng": -88.49765,
        "pop": 397621
    },
    {
        "name": "Benin",
        "code": "BJ",
        "lat": 9.30769,
        "lng": 2.315834,
        "pop": 12123200
    },
    {
        "name": "Bermuda",
        "code": "BM",
        "lat": 32.321384,
        "lng": -64.75737,
        "pop": 62002
    },
    {
        "name": "Bhutan",
        "code": "BT",
        "lat": 27.514162,
        "lng": 90.433601,
        "pop": 771612
    },
    {
        "name": "Bolivia",
        "code": "BO",
        "lat": -16.290154,
        "lng": -63.588653,
        "pop": 11673021
    },
    {
        "name": "Bosnia and Herzegovina",
        "code": "BA",
        "lat": 43.915886,
        "lng": 17.679076,
        "pop": 3516816
    },
    {
        "name": "Botswana",
        "code": "BW",
        "lat": -22.328474,
        "lng": 24.684866,
        "pop": 2393686
    },
    {
        "name": "Bouvet Island",
        "code": "BV",
        "lat": -54.423199,
        "lng": 3.413194
    },
    {
        "name": "Brazil",
        "code": "BR",
        "lat": -14.235004,
        "lng": -51.92528,
        "pop": 212559417
    },
    {
        "name": "British Indian Ocean Territory",
        "code": "IO",
        "lat": -6.343194,
        "lng": 71.876519
    },
    {
        "name": "Brunei Darussalam",
        "code": "BN",
        "lat": 4.535277,
        "lng": 114.727669,
        "pop": 459500
    },
    {
        "name": "Bulgaria",
        "code": "BG",
        "lat": 42.733883,
        "lng": 25.48583,
        "pop": 6948445
    },
    {
        "name": "Burkina Faso",
        "code": "BF",
        "lat": 12.238333,
        "lng": -1.561593,
        "pop": 20903278
    },
    {
        "name": "Burundi",
        "code": "BI",
        "lat": -3.373056,
        "lng": 29.918886,
        "pop": 11890784
    },
    {
        "name": "Cambodia",
        "code": "KH",
        "lat": 12.565679,
        "lng": 104.990963,
        "pop": 16718965
    },
    {
        "name": "Cameroon",
        "code": "CM",
        "lat": 7.369722,
        "lng": 12.354722,
        "pop": 26545863
    },
    {
        "name": "Canada",
        "code": "CA",
        "lat": 56.130366,
        "lng": -106.346771,
        "pop": 37742154
    },
    {
        "name": "Cape Verde",
        "code": "CV",
        "lat": 16.002082,
        "lng": -24.013197,
        "pop": 549935
    },
    {
        "name": "Cayman Islands",
        "code": "KY",
        "lat": 19.3133,
        "lng": -81.2546,
        "pop": 65871
    },
    {
        "name": "Central African Republic",
        "code": "CF",
        "lat": 6.611111,
        "lng": 20.939444,
        "pop": 4829764
    },
    {
        "name": "Chad",
        "code": "TD",
        "lat": 15.454166,
        "lng": 18.732207,
        "pop": 16425864
    },
    {
        "name": "Chile",
        "code": "CL",
        "lat": -35.675147,
        "lng": -71.542969,
        "pop": 19296291
    },
    {
        "name": "China",
        "code": "CN",
        "lat": 35.86166,
        "lng": 104.195397,
        "pop": 1444216107
    },
    {
        "name": "Christmas Island",
        "code": "CX",
        "lat": -10.447525,
        "lng": 105.690449
    },
    {
        "name": "Cocos (Keeling) Islands",
        "code": "CC",
        "lat": -12.164165,
        "lng": 96.870956
    },
    {
        "name": "Colombia",
        "code": "CO",
        "lat": 4.570868,
        "lng": -74.297333,
        "pop": 50882891
    },
    {
        "name": "Comoros",
        "code": "KM",
        "lat": -11.875001,
        "lng": 43.872219,
        "pop": 870724
    },
    {
        "name": "Congo",
        "code": "CG",
        "lat": -0.228021,
        "lng": 15.827659,
        "pop": 5399895
    },
    {
        "name": "Congo, The Democratic Republic of the",
        "code": "CD",
        "lat": -4.038333,
        "lng": 21.758664,
        "pop": 89561404
    },
    {
        "name": "Cook Islands",
        "code": "CK",
        "lat": -21.236736,
        "lng": -159.777671,
        "pop": 17564
    },
    {
        "name": "Costa Rica",
        "code": "CR",
        "lat": 9.748917,
        "lng": -83.753428,
        "pop": 5139776
    },
    {
        "name": "Cote D'Ivoire",
        "code": "CI",
        "lat": 7.539989,
        "lng": -5.54708,
        "pop": 26523071
    },
    {
        "name": "Croatia",
        "code": "HR",
        "lat": 45.1,
        "lng": 15.2,
        "pop": 4105493
    },
    {
        "name": "Cuba",
        "code": "CU",
        "lat": 21.521757,
        "lng": -77.781167,
        "pop": 11326616
    },
    {
        "name": "Cyprus",
        "code": "CY",
        "lat": 35.126413,
        "lng": 33.429859,
        "pop": 1207359
    },
    {
        "name": "Czech Republic",
        "code": "CZ",
        "lat": 49.817492,
        "lng": 15.472962,
        "pop": 10708981
    },
    {
        "name": "Denmark",
        "code": "DK",
        "lat": 56.26392,
        "lng": 9.501785,
        "pop": 5795780
    },
    {
        "name": "Djibouti",
        "code": "DJ",
        "lat": 11.825138,
        "lng": 42.590275,
        "pop": 988000
    },
    {
        "name": "Dominica",
        "code": "DM",
        "lat": 15.414999,
        "lng": -61.370976,
        "pop": 71986
    },
    {
        "name": "Dominican Republic",
        "code": "DO",
        "lat": 18.735693,
        "lng": -70.162651,
        "pop": 10847904
    },
    {
        "name": "Ecuador",
        "code": "EC",
        "lat": -1.831239,
        "lng": -78.183406,
        "pop": 17766896
    },
    {
        "name": "Egypt",
        "code": "EG",
        "lat": 26.820553,
        "lng": 30.802498,
        "pop": 104258327
    },
    {
        "name": "El Salvador",
        "code": "SV",
        "lat": 13.794185,
        "lng": -88.89653,
        "pop": 6486201
    },
    {
        "name": "Equatorial Guinea",
        "code": "GQ",
        "lat": 1.650801,
        "lng": 10.267895,
        "pop": 144970
    },
    {
        "name": "Eritrea",
        "code": "ER",
        "lat": 15.179384,
        "lng": 39.782334,
        "pop": 3546427
    },
    {
        "name": "Estonia",
        "code": "EE",
        "lat": 58.595272,
        "lng": 25.013607,
        "pop": 1324820
    },
    {
        "name": "Ethiopia",
        "code": "ET",
        "lat": 9.145,
        "lng": 40.489673,
        "pop": 120759904
    },
    {
        "name": "Falkland Islands (Malvinas)",
        "code": "FK",
        "lat": -51.796253,
        "lng": -59.523613,
        "pop": 3480
    },
    {
        "name": "Faroe Islands",
        "code": "FO",
        "lat": 61.892635,
        "lng": -6.911806,
        "pop": 53061
    },
    {
        "name": "Fiji",
        "code": "FJ",
        "lat": -16.578193,
        "lng": 179.414413,
        "pop": 902906
    },
    {
        "name": "Finland",
        "code": "FI",
        "lat": 61.92411,
        "lng": 25.748151,
        "pop": 5540720
    },
    {
        "name": "France",
        "code": "FR",
        "lat": 46.603354,
        "lng": 1.888334,
        "pop": 67336457
    },
    {
        "name": "French Guiana",
        "code": "GF",
        "lat": 3.933889,
        "lng": -53.125782,
        "pop": 299600
    },
    {
        "name": "French Polynesia",
        "code": "PF",
        "lat": -17.679742,
        "lng": -149.406843,
        "pop": 290759
    },
    {
        "name": "Gabon",
        "code": "GA",
        "lat": -0.803689,
        "lng": 11.609444,
        "pop": 2225728
    },
    {
        "name": "Gambia",
        "code": "GM",
        "lat": 13.443182,
        "lng": -15.310139,
        "pop": 2416664
    },
    {
        "name": "Georgia",
        "code": "GE",
        "lat": 42.315407,
        "lng": 43.356892,
        "pop": 3989167
    },
    {
        "name": "Germany",
        "code": "DE",
        "lat": 51.165691,
        "lng": 10.451526,
        "pop": 83783942
    },
    {
        "name": "Ghana",
        "code": "GH",
        "lat": 7.946527,
        "lng": -1.023194,
        "pop": 30280811
    },
    {
        "name": "Gibraltar",
        "code": "GI",
        "lat": 36.137741,
        "lng": -5.345374,
        "pop": 33718
    },
    {
        "name": "Greece",
        "code": "GR",
        "lat": 39.074208,
        "lng": 21.824312,
        "pop": 10715549
    },
    {
        "name": "Greenland",
        "code": "GL",
        "lat": 71.706936,
        "lng": -42.604303,
        "pop": 56025
    },
    {
        "name": "Grenada",
        "code": "GD",
        "lat": 12.262776,
        "lng": -61.604171,
        "pop": 112003
    },
    {
        "name": "Guadeloupe",
        "code": "GP",
        "lat": 16.995971,
        "lng": -62.067641,
        "pop": 395700
    },
    {
        "name": "Guam",
        "code": "GU",
        "lat": 13.444304,
        "lng": 144.793731,
        "pop": 172400
    },
    {
        "name": "Guatemala",
        "code": "GT",
        "lat": 15.783471,
        "lng": -90.230759,
        "pop": 17581472
    },
    {
        "name": "Guernsey",
        "code": "GG",
        "lat": 49.465691,
        "lng": -2.585278,
        "pop": 67052
    },
    {
        "name": "Guinea",
        "code": "GN",
        "lat": 9.945587,
        "lng": -9.696645,
        "pop": 13132792
    },
    {
        "name": "Guinea-Bissau",
        "code": "GW",
        "lat": 11.803749,
        "lng": -15.180413,
        "pop": 2085873
    },
    {
        "name": "Guyana",
        "code": "GY",
        "lat": 4.860416,
        "lng": -58.93018,
        "pop": 786508
    },
    {
        "name": "Haiti",
        "code": "HT",
        "lat": 18.971187,
        "lng": -72.285215,
        "pop": 11263077
    },
    {
        "name": "Heard Island and Mcdonald Islands",
        "code": "HM",
        "lat": -53.08181,
        "lng": 73.504158,
        "pop": 0
    },
    {
        "name": "Holy See (Vatican City State)",
        "code": "VA",
        "lat": 41.902916,
        "lng": 12.453389,
        "pop": 801
    },
    {
        "name": "Honduras",
        "code": "HN",
        "lat": 15.199999,
        "lng": -86.241905,
        "pop": 9904607
    },
    {
        "name": "Hong Kong",
        "code": "HK",
        "lat": 22.396428,
        "lng": 114.109497,
        "pop": 7496981
    },
    {
        "name": "Hungary",
        "code": "HU",
        "lat": 47.162494,
        "lng": 19.503304,
        "pop": 9769526
    },
    {
        "name": "Iceland",
        "code": "IS",
        "lat": 64.963051,
        "lng": -19.020835,
        "pop": 343353
    },
    {
        "name": "India",
        "code": "IN",
        "lat": 20.593684,
        "lng": 78.96288,
        "pop": 1393409038
    },
    {
        "name": "Indonesia",
        "code": "ID",
        "lat": -0.789275,
        "lng": 113.921327,
        "pop": 273523615
    },
    {
        "name": "Iran, Islamic Republic Of",
        "code": "IR",
        "lat": 32.427908,
        "lng": 53.688046,
        "pop": 83992949
    },
    {
        "name": "Iraq",
        "code": "IQ",
        "lat": 33.223191,
        "lng": 43.679291,
        "pop": 40222503
    },
    {
        "name": "Ireland",
        "code": "IE",
        "lat": 53.41291,
        "lng": -8.24389,
        "pop": 4937786
    },
    {
        "name": "Isle of Man",
        "code": "IM",
        "lat": 54.236107,
        "lng": -4.548056,
        "pop": 85033
    },
    {
        "name": "Israel",
        "code": "IL",
        "lat": 31.046051,
        "lng": 34.851612,
        "pop": 8655541
    },
    {
        "name": "Italy",
        "code": "IT",
        "lat": 41.87194,
        "lng": 12.56738,
        "pop": 60461826
    },
    {
        "name": "Jamaica",
        "code": "JM",
        "lat": 18.109581,
        "lng": -77.297508,
        "pop": 2961167
    },
    {
        "name": "Japan",
        "code": "JP",
        "lat": 36.204824,
        "lng": 138.252924,
        "pop": 126476461
    },
    {
        "name": "Japan",
        "code": "JP",
        "lat": 36.204824,
        "lng": 138.252924,
        "pop": 126476461
    },
    {
        "name": "Jersey",
        "code": "JE",
        "lat": 49.214439,
        "lng": -2.13125,
        "pop": 108349
    },
    {
        "name": "Jordan",
        "code": "JO",
        "lat": 30.585164,
        "lng": 36.238414,
        "pop": 10203134
    },
    {
        "name": "Kazakhstan",
        "code": "KZ",
        "lat": 48.019573,
        "lng": 66.923684,
        "pop": 18776707
    },
    {
        "name": "Kenya",
        "code": "KE",
        "lat": -0.023559,
        "lng": 37.906193,
        "pop": 53771296
    },
    {
        "name": "Kiribati",
        "code": "KI",
        "lat": -3.370417,
        "lng": -168.734039,
        "pop": 120100
    },
    {
        "name": "Korea, Democratic People's Republic of",
        "code": "KP",
        "lat": 40.339852,
        "lng": 127.510093,
        "pop": 25778816
    },
    {
        "name": "Korea, Republic of",
        "code": "KR",
        "lat": 35.907757,
        "lng": 127.766922,
        "pop": 51269185
    },
    {
        "name": "Kuwait",
        "code": "KW",
        "lat": 29.375859,
        "lng": 47.977405,
        "pop": 4207083
    },
    {
        "name": "Kyrgyzstan",
        "code": "KG",
        "lat": 41.20438,
        "lng": 74.766098,
        "pop": 6524195
    },
    {
        "name": "Lao People's Democratic Republic",
        "code": "LA",
        "lat": 19.85627,
        "lng": 102.495496,
        "pop": 7275556
    },
    {
        "name": "Latvia",
        "code": "LV",
        "lat": 56.879635,
        "lng": 24.603189,
        "pop": 1886202
    },
    {
        "name": "Lebanon",
        "code": "LB",
        "lat": 33.854721,
        "lng": 35.862285,
        "pop": 6825442
    },
    {
        "name": "Lesotho",
        "code": "LS",
        "lat": -29.609988,
        "lng": 28.233608,
        "pop": 2142249
    },
    {
        "name": "Liberia",
        "code": "LR",
        "lat": 6.428055,
        "lng": -9.429499,
        "pop": 5057681
    },
    {
        "name": "Libyan Arab Jamahiriya",
        "code": "LY",
        "lat": 26.3351,
        "lng": 17.228331,
        "pop": 6871287
    },
    {
        "name": "Liechtenstein",
        "code": "LI",
        "lat": 47.166,
        "lng": 9.555373,
        "pop": 38128
    },
    {
        "name": "Lithuania",
        "code": "LT",
        "lat": 55.169438,
        "lng": 23.881275,
        "pop": 2722289
    },
    {
        "name": "Luxembourg",
        "code": "LU",
        "lat": 49.815273,
        "lng": 6.129583,
        "pop": 626108
    },
    {
        "name": "Macao",
        "code": "MO",
        "lat": 22.198745,
        "lng": 113.543873,
        "pop": 649335
    },
    {
        "name": "Macedonia, The Former Yugoslav Republic of",
        "code": "MK",
        "lat": 41.608635,
        "lng": 21.745275,
        "pop": 2082958
    },
    {
        "name": "Madagascar",
        "code": "MG",
        "lat": -18.766947,
        "lng": 46.869107,
        "pop": 27691019
    },
    {
        "name": "Malawi",
        "code": "MW",
        "lat": -13.254308,
        "lng": 34.301525,
        "pop": 19129952
    },
    {
        "name": "Malaysia",
        "code": "MY",
        "lat": 4.210484,
        "lng": 101.975766,
        "pop": 32365999
    },
    {
        "name": "Maldives",
        "code": "MV",
        "lat": 3.202778,
        "lng": 73.22068,
        "pop": 521144
    },
    {
        "name": "Mali",
        "code": "ML",
        "lat": 17.570692,
        "lng": -3.996166,
        "pop": 20250834
    },
    {
        "name": "Malta",
        "code": "MT",
        "lat": 35.937496,
        "lng": 14.375416,
        "pop": 441543
    },
    {
        "name": "Marshall Islands",
        "code": "MH",
        "lat": 7.131474,
        "lng": 171.184478,
        "pop": 59190
    },
    {
        "name": "Martinique",
        "code": "MQ",
        "lat": 14.641528,
        "lng": -61.024174,
        "pop": 375265
    },
    {
        "name": "Mauritania",
        "code": "MR",
        "lat": 21.00789,
        "lng": -10.940835,
        "pop": 4649658
    },
    {
        "name": "Mauritius",
        "code": "MU",
        "lat": -20.348404,
        "lng": 57.552152,
        "pop": 1265303
    },
    {
        "name": "Mayotte",
        "code": "YT",
        "lat": -12.8275,
        "lng": 45.166244,
        "pop": 266150
    },
    {
        "name": "Mexico",
        "code": "MX",
        "lat": 23.634501,
        "lng": -102.552784,
        "pop": 126190788
    },
    {
        "name": "Micronesia, Federated States of",
        "code": "FM",
        "lat": 7.425554,
        "lng": 150.550812,
        "pop": 113815
    },
    {
        "name": "Moldova, Republic of",
        "code": "MD",
        "lat": 47.411631,
        "lng": 28.369885,
        "pop": 4033963
    },
    {
        "name": "Monaco",
        "code": "MC",
        "lat": 43.750298,
        "lng": 7.412841,
        "pop": 39242
    },
    {
        "name": "Mongolia",
        "code": "MN",
        "lat": 46.862496,
        "lng": 103.846656,
        "pop": 3278290
    },
    {
        "name": "Montserrat",
        "code": "MS",
        "lat": 16.742498,
        "lng": -62.187366,
        "pop": 4993
    },
    {
        "name": "Morocco",
        "code": "MA",
        "lat": 31.791702,
        "lng": -7.09262,
        "pop": 36910558
    },
    {
        "name": "Mozambique",
        "code": "MZ",
        "lat": -18.665695,
        "lng": 35.529562,
        "pop": 31255435
    },
    {
        "name": "Myanmar",
        "code": "MM",
        "lat": 21.916221,
        "lng": 95.955974,
        "pop": 54409794
    },
    {
        "name": "Namibia",
        "code": "NA",
        "lat": -22.95764,
        "lng": 18.49041,
        "pop": 2540905
    },
    {
        "name": "Nauru",
        "code": "NR",
        "lat": -0.522778,
        "lng": 166.931503,
        "pop": 10834
    },
    {
        "name": "Nepal",
        "code": "NP",
        "lat": 28.394857,
        "lng": 84.124008,
        "pop": 29136808
    },
    {
        "name": "Netherlands",
        "code": "NL",
        "lat": 52.132633,
        "lng": 5.291266,
        "pop": 17134873
    },
    {
        "name": "Netherlands Antilles",
        "code": "AN",
        "lat": 12.226079,
        "lng": -69.060087,
        "pop": 227049
    },
    {
        "name": "New Caledonia",
        "code": "NC",
        "lat": -20.904305,
        "lng": 165.618042,
        "pop": 295616
    },
    {
        "name": "New Zealand",
        "code": "NZ",
        "lat": -40.900557,
        "lng": 174.885971,
        "pop": 5088288
    },
    {
        "name": "Nicaragua",
        "code": "NI",
        "lat": 12.865416,
        "lng": -85.207229,
        "pop": 6624554
    },
    {
        "name": "Niger",
        "code": "NE",
        "lat": 17.607789,
        "lng": 8.081666,
        "pop": 24206644
    },
    {
        "name": "Nigeria",
        "code": "NG",
        "lat": 9.082,
        "lng": 8.675277,
        "pop": 206139587
    },
    {
        "name": "Niue",
        "code": "NU",
        "lat": -19.054445,
        "lng": -169.867233,
        "pop": 1613
    },
    {
        "name": "Norfolk Island",
        "code": "NF",
        "lat": -29.040835,
        "lng": 167.954712,
        "pop": 2169
    },
    {
        "name": "Northern Mariana Islands",
        "code": "MP",
        "lat": 17.33083,
        "lng": 145.38469,
        "pop": 55194
    },
    {
        "name": "Norway",
        "code": "NO",
        "lat": 60.472024,
        "lng": 8.468946,
        "pop": 5467368
    },
    {
        "name": "Oman",
        "code": "OM",
        "lat": 21.512583,
        "lng": 55.923255,
        "pop": 5303622
    },
    {
        "name": "Pakistan",
        "code": "PK",
        "lat": 30.375321,
        "lng": 69.345116,
        "pop": 225199937
    },
    {
        "name": "Palau",
        "code": "PW",
        "lat": 7.51498,
        "lng": 134.58252,
        "pop": 18094
    },
    {
        "name": "Palestinian Territory, Occupied",
        "code": "PS",
        "lat": 31.952162,
        "lng": 35.233154,
        "pop": 5223036
    },
    {
        "name": "Panama",
        "code": "PA",
        "lat": 8.537981,
        "lng": -80.782127,
        "pop": 4314768
    },
    {
        "name": "Papua New Guinea",
        "code": "PG",
        "lat": -6.314993,
        "lng": 143.95555,
        "pop": 9138340
    },
    {
        "name": "Paraguay",
        "code": "PY",
        "lat": -23.442503,
        "lng": -58.443832,
        "pop": 7132530
    },
    {
        "name": "Peru",
        "code": "PE",
        "lat": -9.190347,
        "lng": -75.015152,
        "pop": 32971854
    },
    {
        "name": "Philippines",
        "code": "PH",
        "lat": 12.879721,
        "lng": 121.774017,
        "pop": 112904665
    },
    {
        "name": "Pitcairn",
        "code": "PN",
        "lat": -24.703615,
        "lng": -127.439308,
        "pop": 47
    },
    {
        "name": "Poland",
        "code": "PL",
        "lat": 51.919438,
        "lng": 19.145136,
        "pop": 37846605
    },
    {
        "name": "Portugal",
        "code": "PT",
        "lat": 39.399872,
        "lng": -8.224454,
        "pop": 10283822
    },
    {
        "name": "Puerto Rico",
        "code": "PR",
        "lat": 18.220833,
        "lng": -66.590149,
        "pop": 2860853
    },
    {
        "name": "Qatar",
        "code": "QA",
        "lat": 25.354826,
        "lng": 51.183884,
        "pop": 2832067
    },
    {
        "name": "Reunion",
        "code": "RE",
        "lat": -21.115141,
        "lng": 55.536384,
        "pop": 895312
    },
    {
        "name": "Romania",
        "code": "RO",
        "lat": 45.943161,
        "lng": 24.96676,
        "pop": 19237691
    },
    {
        "name": "Russian Federation",
        "code": "RU",
        "lat": 61.52401,
        "lng": 105.318756,
        "pop": 145912025
    },
    {
        "name": "Rwanda",
        "code": "RW",
        "lat": -1.940278,
        "lng": 29.873888,
        "pop": 13026279
    },
    {
        "name": "Rwanda",
        "code": "RW",
        "lat": -1.940278,
        "lng": 29.873888,
        "pop": 13026279
    },
    {
        "name": "Saint Helena",
        "code": "SH",
        "lat": -24.143474,
        "lng": -10.030696,
        "pop": 6077
    },
    {
        "name": "Saint Kitts and Nevis",
        "code": "KN",
        "lat": 17.357822,
        "lng": -62.782998,
        "pop": 53192
    },
    {
        "name": "Saint Lucia",
        "code": "LC",
        "lat": 13.909444,
        "lng": -60.978893,
        "pop": 183629
    },
    {
        "name": "Saint Pierre and Miquelon",
        "code": "PM",
        "lat": 46.941936,
        "lng": -56.27111,
        "pop": 5808
    },
    {
        "name": "Saint Vincent and the Grenadines",
        "code": "VC",
        "lat": 12.984305,
        "lng": -61.287228,
        "pop": 110940
    },
    {
        "name": "Samoa",
        "code": "WS",
        "lat": -13.759029,
        "lng": -172.104629,
        "pop": 200362
    },
    {
        "name": "San Marino",
        "code": "SM",
        "lat": 43.94236,
        "lng": 12.457777,
        "pop": 34785
    },
    {
        "name": "Sao Tome and Principe",
        "code": "ST",
        "lat": 0.18636,
        "lng": 6.613081,
        "pop": 227024
    },
    {
        "name": "Saudi Arabia",
        "code": "SA",
        "lat": 23.885942,
        "lng": 45.079162,
        "pop": 35340643
    },
    {
        "name": "Senegal",
        "code": "SN",
        "lat": 14.497401,
        "lng": -14.452362,
        "pop": 17670283
    },
    {
        "name": "Serbia and Montenegro",
        "code": "CS",
        "lat": 44.016521,
        "lng": 21.005859,
        "pop": 10829175
    },
    {
        "name": "Seychelles",
        "code": "SC",
        "lat": -4.679574,
        "lng": 55.491977,
        "pop": 98462
    },
    {
        "name": "Sierra Leone",
        "code": "SL",
        "lat": 8.460555,
        "lng": -11.779889,
        "pop": 7976985
    },
    {
        "name": "Singapore",
        "code": "SG",
        "lat": 1.352083,
        "lng": 103.819836,
        "pop": 5896684
    },
    {
        "name": "Slovakia",
        "code": "SK",
        "lat": 48.669026,
        "lng": 19.699024,
        "pop": 5464844
    },
    {
        "name": "Slovenia",
        "code": "SI",
        "lat": 46.151241,
        "lng": 14.995463,
        "pop": 2146619
    },
    {
        "name": "Solomon Islands",
        "code": "SB",
        "lat": -9.744036,
        "lng": 160.075952,
        "pop": 736556
    },
    {
        "name": "Somalia",
        "code": "SO",
        "lat": 5.152149,
        "lng": 46.199616,
        "pop": 16200525
    },
    {
        "name": "South Africa",
        "code": "ZA",
        "lat": -30.559482,
        "lng": 22.937506,
        "pop": 64575167
    },
    {
        "name": "South Georgia and the South Sandwich Islands",
        "code": "GS",
        "lat": -54.429579,
        "lng": -36.587909,
        "pop": 30
    },
    {
        "name": "Spain",
        "code": "ES",
        "lat": 40.463667,
        "lng": -3.74922,
        "pop": 47351567
    },
    {
        "name": "Sri Lanka",
        "code": "LK",
        "lat": 7.873054,
        "lng": 80.771797,
        "pop": 21803000
    },
    {
        "name": "Sudan",
        "code": "SD",
        "lat": 12.862807,
        "lng": 30.217636,
        "pop": 44678601
    },
    {
        "name": "Suriname",
        "code": "SR",
        "lat": 3.919305,
        "lng": -56.027783,
        "pop": 586632
    },
    {
        "name": "Svalbard and Jan Mayen",
        "code": "SJ",
        "lat": 77.553604,
        "lng": 23.670272,
        "pop": 2562
    },
    {
        "name": "Swaziland",
        "code": "SZ",
        "lat": -26.522503,
        "lng": 31.465866,
        "pop": 1159250
    },
    {
        "name": "Sweden",
        "code": "SE",
        "lat": 60.128161,
        "lng": 18.643501,
        "pop": 10099265
    },
    {
        "name": "Switzerland",
        "code": "CH",
        "lat": 46.818188,
        "lng": 8.227512,
        "pop": 8743854
    },
    {
        "name": "Syrian Arab Republic",
        "code": "SY",
        "lat": 34.802075,
        "lng": 38.996815,
        "pop": 17500657
    },
    {
        "name": "Taiwan, Province of China",
        "code": "TW",
        "lat": 23.69781,
        "lng": 120.960515,
        "pop": 23816775
    },
    {
        "name": "Tajikistan",
        "code": "TJ",
        "lat": 38.861034,
        "lng": 71.276093,
        "pop": 10355344
    },
    {
        "name": "Tanzania, United Republic of",
        "code": "TZ",
        "lat": -6.369028,
        "lng": 34.888822,
        "pop": 59734218
    },
    {
        "name": "Thailand",
        "code": "TH",
        "lat": 15.870032,
        "lng": 100.992541,
        "pop": 69830779
    },
    {
        "name": "Timor-Leste",
        "code": "TL",
        "lat": -8.874217,
        "lng": 125.727539,
        "pop": 1387149
    },
    {
        "name": "Togo",
        "code": "TG",
        "lat": 8.619543,
        "lng": 0.824782,
        "pop": 8278737
    },
    {
        "name": "Tokelau",
        "code": "TK",
        "lat": -9.20014,
        "lng": -171.8484,
        "pop": 1357
    },
    {
        "name": "Tonga",
        "code": "TO",
        "lat": -21.178986,
        "lng": -175.198242,
        "pop": 105695
    },
    {
        "name": "Trinidad and Tobago",
        "code": "TT",
        "lat": 10.691803,
        "lng": -61.222503,
        "pop": 1402970
    },
    {
        "name": "Tunisia",
        "code": "TN",
        "lat": 33.886917,
        "lng": 9.537499,
        "pop": 11818619
    },
    {
        "name": "Turkey",
        "code": "TR",
        "lat": 38.963745,
        "lng": 35.243322,
        "pop": 83614362
    },
    {
        "name": "Turkmenistan",
        "code": "TM",
        "lat": 38.969719,
        "lng": 59.556278,
        "pop": 5942089
    },
    {
        "name": "Turks and Caicos Islands",
        "code": "TC",
        "lat": 21.694025,
        "lng": -71.797928,
        "pop": 31458
    },
    {
        "name": "Tuvalu",
        "code": "TV",
        "lat": -7.109535,
        "lng": 177.64933,
        "pop": 11792
    },
    {
        "name": "Uganda",
        "code": "UG",
        "lat": 1.373333,
        "lng": 32.290275,
        "pop": 47161838
    },
    {
        "name": "Uganda",
        "code": "UG",
        "lat": 1.373333,
        "lng": 32.290275,
        "pop": 47161838
    },
    {
        "name": "Ukraine",
        "code": "UA",
        "lat": 48.379433,
        "lng": 31.16558,
        "pop": 43993638
    },
    {
        "name": "United Arab Emirates",
        "code": "AE",
        "lat": 23.424076,
        "lng": 53.847818,
        "pop": 10201197
    },
    {
        "name": "United Kingdom",
        "code": "GB",
        "lat": 55.378051,
        "lng": -3.435973,
        "pop": 68207114
    },
    {
        "name": "United States",
        "code": "US",
        "lat": 37.09024,
        "lng": -95.712891,
        "pop": 331002651
    },
    {
        "name": "United States Minor Outlying Islands",
        "code": "UM",
        "lat": 19.2823,
        "lng": 166.647,
        "pop": 300
    },
    {
        "name": "Uruguay",
        "code": "UY",
        "lat": -32.522779,
        "lng": -55.765835,
        "pop": 3473730
    },
    {
        "name": "Uzbekistan",
        "code": "UZ",
        "lat": 41.377491,
        "lng": 64.585262,
        "pop": 33469203
    },
    {
        "name": "Vanuatu",
        "code": "VU",
        "lat": -15.376706,
        "lng": 166.959158,
        "pop": 307145
    },
    {
        "name": "Venezuela",
        "code": "VE",
        "lat": 6.42375,
        "lng": -66.58973,
        "pop": 28435940
    },
    {
        "name": "Viet Nam",
        "code": "VN",
        "lat": 14.058324,
        "lng": 108.277199,
        "pop": 97338579
    },
    {
        "name": "Virgin Islands, British",
        "code": "VG",
        "lat": 18.420695,
        "lng": -64.639968,
        "pop": 30030
    },
    {
        "name": "Virgin Islands, U.S.",
        "code": "VI",
        "lat": 18.335765,
        "lng": -64.896335,
        "pop": 104578
    },
    {
        "name": "Wallis and Futuna",
        "code": "WF",
        "lat": -13.768752,
        "lng": -177.156097,
        "pop": 11239
    },
    {
        "name": "Western Sahara",
        "code": "EH",
        "lat": 24.215527,
        "lng": -12.885834,
        "pop": 597339
    },
    {
        "name": "Yemen",
        "code": "YE",
        "lat": 15.552727,
        "lng": 48.516388,
        "pop": 29825964
    },
    {
        "name": "Zambia",
        "code": "ZM",
        "lat": -13.133897,
        "lng": 27.849332,
        "pop": 18383955
    },
    {
        "name": "Zimbabwe",
        "code": "ZW",
        "lat": -19.015438,
        "lng": 29.154857,
        "pop": 14862927
    }
 
]   